{
	"initCinemas":[
		{
			"_id": "gMpcapWqddsBeY8EN",
			"name": "Sture 1",
			"coordinates": {
				"lat": 59.339003,
				"lng": 18.067807
			}
		},
		{
			"_id": "sdRXSbqstqdNeTJ98",
			"name": "Grand 1",
			"coordinates": {
				"lat": 59.339334,
				"lng": 18.059335 
			}
		},
		{
			"_id": "zFuom5mxSq6XjK5cq",
			"name": "Grand 4",
			"coordinates": {
				"lat": 59.339334,
				"lng": 18.059335 
			}
		},
		{
			"_id": "9b65jqXHhbd7oZ5XQ",
			"name": "Bio Rio",
			"coordinates": {
				"lat": 59.315312,
				"lng": 18.030622
			}
		},
		{
			"_id": "2cyzB466hhXYhDvTc", 
			"name": "Bio Mauritz", 
			"coordinates": {
				"lat": 59.339264,
				"lng": 18.104885
			}
		},
		{
			"_id": "taSoKwssYNTMRchoj", 
			"name": "Filmhuset Victor", 
			"coordinates": {
				"lat": 59.339264,
				"lng": 18.104885
			}
		},
		{
			"_id": "8Reg42otx3gXXT99f", 
			"name": "Klarabiografen", 
			"coordinates": {
				"lat": 59.332206,
				"lng": 18.064003
			}
		},
		{
			"_id": "oP4ESXqQ2YpeSXx5S",
			"name": "Rigoletto 2",
			"coordinates": {
				"lat": 59.336121,
				"lng": 18.068124
			}
		},
		{
			"_id": "scn7aamwrbrnpuYAZ",
			"name": "Rigoletto 4",
			"coordinates": {
				"lat": 59.336121,
				"lng": 18.068124
			}
		},
		{
			"_id": "BXp3N2DfFoAgCc8Ri",
			"name": "Skandia",
			"coordinates": {
				"lat": 59.335439,
				"lng": 18.059983
			}
		},
		{
			"_id": "uDrtGi7rTXPWMNssw",
			"name": "Victoria 4",
			"coordinates": {
				"lat": 59.312739,
				"lng": 18.074368
			}
		},
		{
			"_id": "iPWmQno4dDSAshHnm",
			"name": "Victoria 2",
			"coordinates": {
				"lat": 59.312739,
				"lng": 18.074368
			}
		},
		{
			"_id": "ksLCDYYYGRNd9kdhp",
			"name": "Zita 1",
			"coordinates": {
				"lat": 59.339060,
				"lng": 18.067741
			}
		},
		{
			"_id": "Mm3BrRet5RYasFJQj",
			"name": "Zita 2",
			"coordinates": {
				"lat": 59.339060,
				"lng": 18.067741
			}
		}
	]
}